{
    "pubs": [
        {
            "id": 1,
            "lat": 55.93953,
            "lon": -3.17958,
            "name": "The Abbey",
            "address": "65 South Clerk Street, EH8 9PP",
            "visited": true
        },
        {
            "id": 2,
            "lat": 55.95327,
            "lon": -3.19465,
            "name": "Abbotsford Bar & Restaurant",
            "address": "3-5 Rose Street, EH2 2PR",
            "visited": true
        },
        {
            "id": 3,
            "lat": 55.94951,
            "lon": -3.18795,
            "name": "The Advocate",
            "address": "7 Hunter Square, EH1 1QW",
            "visited": true
        },
        {
            "id": 4,
            "lat": 55.95016,
            "lon": -3.18843,
            "name": "The Albanach",
            "address": "197 High Street, EH1 1PE",
            "visited": true
        },
        {
            "id": 5,
            "lat": 55.95200,
            "lon": -3.20538,
            "name": "The Alexander Graham Bell",
            "address": "126-128 George Street, EH2 4JZ",
            "visited": true
        },
        {
            "id": 6,
            "lat": 55.95179,
            "lon": -3.20333,
            "name": "The Amber Rose",
            "address": "22-26 Castle Street, EH2 4LS",
            "visited": true
        },
        {
            "id": 7,
            "lat": 55.95795,
            "lon": -3.20620,
            "name": "The Antiquary",
            "address": "68-72 St Stephen Street, EH3 5AQ"
        },
        {
            "id": 8,
            "lat": 55.95051,
            "lon": -3.18884,
            "name": "Arcade Bar",
            "address": "48 Cockburn Street, EH1 1PB"
        },
        {
            "id": 9,
            "lat": 55.93821,
            "lon": -3.19154,
            "name": "Argyle Bar",
            "address": "15 Argyle Place, EH9 1JJ",
            "visited": true
        },
        {
            "id": 10,
            "lat": 55.95750,
            "lon": -3.16943,
            "name": "Artisan",
            "address": "35 London Road, EH7 5BQ",
            "visited": true
        },
        {
            "id": 11,
            "lat": 55.93900,
            "lon": -3.22367,
            "name": "Athletics Arms (Diggers)",
            "address": "1-3 Angle Park Terrace, EH11 2JX"
        },
        {
            "id": 12,
            "lat": 55.94354,
            "lon": -3.18015,
            "name": "Auld Hoose",
            "address": "23-25 St Leonards Street, EH8 9QN",
            "visited": true
        },
        {
            "id": 13,
            "lat": 55.95237,
            "lon": -3.19929,
            "name": "Auld Hundred",
            "address": "100 Rose Street, EH2 2NN",
            "visited": true
        },
        {
            "id": 14,
            "lat": 55.95752,
            "lon": -3.20720,
            "name": "The Bailie",
            "address": "2 St Stephen Street, EH3 5AL",
            "visited": true
        },
        {
            "id": 15,
            "lat": 55.94881,
            "lon": -3.18659,
            "name": "Bannermans",
            "address": "212 Cowgate, EH1 1NQ",
            "visited": true
        },
        {
            "id": 16,
            "lat": 55.94936,
            "lon": -3.18681,
            "name": "The Banshee Labyrinth",
            "address": "29-35 Niddry Street, EH1 1LG",
            "visited": true
        },
        {
            "id": 17,
            "lat": 55.95805,
            "lon": -3.18919,
            "name": "Barony Bar",
            "address": "81-85 Broughton Street, EH1 3RJ"
        },
        {
            "id": 18,
            "lat": 55.94734,
            "lon": -3.19718,
            "name": "The Beehive Inn",
            "address": "18-20 Grassmarket, EH1 2JU"
        },
        {
            "id": 19,
            "lat": 55.95226,
            "lon": -3.18899,
            "name": "The Beer House",
            "address": "Waverley Station, EH1 1BB"
        },
        {
            "id": 20,
            "lat": 55.95587,
            "lon": -3.16423,
            "name": "Bellfield Brewery Tap Room",
            "address": "46 Stanley Place, EH7 5TB",
            "visited": true
        },
        {
            "id": 21,
            "lat": 55.94175,
            "lon": -3.20333,
            "name": "Bennets Bar",
            "address": "8 Leven Street, EH3 9LG",
            "visited": true
        },
        {
            "id": 22,
            "lat": 55.92643,
            "lon": -3.20958,
            "name": "Bennets of Morningside",
            "address": "1 Maxwell Street, EH10 5HT",
            "visited": true
        },
        {
            "id": 23,
            "lat": 55.94732,
            "lon": -3.19735,
            "name": "Black Bull",
            "address": "12 Grassmarket, EH1 2JU"
        },
        {
            "id": 24,
            "lat": 55.95163,
            "lon": -3.20369,
            "name": "Black Cat",
            "address": "168 Rose Street, EH2 4BA",
            "visited": true
        },
        {
            "id": 25,
            "lat": 55.94590,
            "lon": -3.20319,
            "name": "Blue Blazer",
            "address": "2 Spittal Street, EH3 9DX",
            "visited": true
        },
        {
            "id": 26,
            "lat": 55.96905,
            "lon": -3.18446,
            "name": "The Bonnington",
            "address": "284 Bonnington Road, EH6 5BE"
        },
        {
            "id": 27,
            "lat": 55.95176,
            "lon": -3.19154,
            "name": "The Booking Office",
            "address": "17 Waverley Bridge, EH1 1BQ",
            "visited": true
        },
        {
            "id": 28,
            "lat": 55.94846,
            "lon": -3.19421,
            "name": "Bow Bar",
            "address": "80 West Bow, EH1 2HH",
            "visited": true
        },
        {
            "id": 29,
            "lat": 55.93687,
            "lon": -3.18064,
            "name": "Brass Monkey (The Grange)",
            "address": "1 Grange Road, EH9 1UH",
            "visited": true
        },
        {
            "id": 30,
            "lat": 55.96402,
            "lon": -3.17771,
            "name": "Brass Monkey (Leith Walk)",
            "address": "362 Leith Walk, EH6 5BR",
            "visited": true
        },
        {
            "id": 31,
            "lat": 55.94735,
            "lon": -3.18531,
            "name": "Brass Monkey (Southside)",
            "address": "14 Drummond Street, EH8 9TU",
            "visited": true
        },
        {
            "id": 32,
            "lat": 55.94432,
            "lon": -3.20199,
            "name": "Brauhaus",
            "address": "105-107 Lauriston Place, EH3 9JG",
            "visited": true
        },
        {
            "id": 33,
            "lat": 55.95845,
            "lon": -3.19002,
            "name": "Broughton",
            "address": "46-48a Broughton Street, EH1 3SA"
        },
        {
            "id": 34,
            "lat": 55.97455,
            "lon": -3.16082,
            "name": "The Bullfinch",
            "address": "2-4 Bath Road, EH6 7JT"
        },
        {
            "id": 35,
            "lat": 55.95386,
            "lon": -3.19058,
            "name": "Cafe Royal",
            "address": "19 West Register Street, EH2 2AA"
        },
        {
            "id": 36,
            "lat": 55.94823,
            "lon": -3.20623,
            "name": "The Caley Picture House",
            "address": "31 Lothian Road, EH1 2DJ",
            "visited": true
        },
        {
            "id": 37,
            "lat": 55.93764,
            "lon": -3.22579,
            "name": "Caley Sample Room",
            "address": "56 Angle Park Terrace, EH11 2JR"
        },
        {
            "id": 38,
            "lat": 55.95280,
            "lon": -3.20599,
            "name": "The Cambridge Bar",
            "address": "20 Young Street, EH2 4JB",
            "visited": true
        },
        {
            "id": 39,
            "lat": 55.92758,
            "lon": -3.20927,
            "name": "Canny Man's",
            "address": "237 Morningside Road, EH10 4QU",
            "visited": true
        },
        {
            "id": 40,
            "lat": 55.95084,
            "lon": -3.18246,
            "name": "The Canons' Gait",
            "address": "232 Canongate, EH8 8DQ",
            "visited": true
        },
        {
            "id": 41,
            "lat": 55.94708,
            "lon": -3.18653,
            "name": "The Captain's Bar",
            "address": "4 South College Street, EH8 9AA",
            "visited": true
        },
        {
            "id": 42,
            "lat": 55.97606,
            "lon": -3.16856,
            "name": "The Carriers Quarters",
            "address": "42 Bernard Street, EH6 6PR",
            "visited": true
        },
        {
            "id": 43,
            "lat": 55.95912,
            "lon": -3.19047,
            "name": "Cask & Barrel (New Town)",
            "address": "115 Broughton Street, EH1 3RZ",
            "visited": true
        },
        {
            "id": 44,
            "lat": 55.93904,
            "lon": -3.18002,
            "name": "Cask & Barrel (Southside)",
            "address": "24-26 West Preston Street, EH8 9PZ",
            "visited": true
        },
        {
            "id": 45,
            "lat": 55.94860,
            "lon": -3.19481,
            "name": "The Castle Arms",
            "address": "9 Johnstone Terrace, EH1 2PW"
        },
        {
            "id": 46,
            "lat": 55.90425,
            "lon": -3.20700,
            "name": "Charwood Restaurant & Bar",
            "address": "47 Buckstone Terrace, EH10 6QJ",
            "visited": true
        },
        {
            "id": 47,
            "lat": 55.96019,
            "lon": -3.20100,
            "name": "Clark's Bar",
            "address": "142 Dundas Street, EH3 5DQ",
            "visited": true
        },
        {
            "id": 48,
            "lat": 55.94323,
            "lon": -3.20199,
            "name": "Cloisters",
            "address": "26 Brougham Street, EH3 9JH",
            "visited": true
        },
        {
            "id": 49,
            "lat": 55.90739,
            "lon": -3.25609,
            "name": "Colinton Inn",
            "address": "12-14 Bridge Road, EH13 0LQ",
            "visited": true
        },
        {
            "id": 50,
            "lat": 55.95653,
            "lon": -3.18792,
            "name": "The Conan Doyle",
            "address": "71-73 York Place, EH1 3JD",
            "visited": true
        },
        {
            "id": 51,
            "lat": 55.94061,
            "lon": -3.28332,
            "name": "Corstorphine Inn",
            "address": "17 Corstorphine High Street, EH12 7SU"
        },
        {
            "id": 52,
            "lat": 55.93484,
            "lon": -3.09454,
            "name": "Cuddie Brae",
            "address": "91 Newcraighall Road, EH21 8RX"
        },
        {
            "id": 53,
            "lat": 55.95906,
            "lon": -3.19713,
            "name": "The Cumberland Bar",
            "address": "1-3 Cumberland Street, EH3 6RT",
            "visited": true
        },
        {
            "id": 54,
            "lat": 55.94214,
            "lon": -3.18400,
            "name": "Dagda",
            "address": "93-95 Buccleuch Street, EH8 9NG",
            "visited": true
        },
        {
            "id": 55,
            "lat": 55.94368,
            "lon": -3.05791,
            "name": "The David MacBeth Moir",
            "address": "Bridge Street, EH21 6AG",
            "visited": true
        },
        {
            "id": 56,
            "lat": 55.94951,
            "lon": -3.19290,
            "name": "Deacon Brodies Tavern",
            "address": "435 Lawnmarket, EH1 2NT",
            "visited": true
        },
        {
            "id": 57,
            "lat": 55.95146,
            "lon": -3.20491,
            "name": "Dirty Dick's",
            "address": "159 Rose Street, EH2 4LS",
            "visited": true
        },
        {
            "id": 58,
            "lat": 55.94547,
            "lon": -3.19086,
            "name": "Doctors",
            "address": "32 Forrest Road, EH1 2QN",
            "visited": true
        },
        {
            "id": 59,
            "lat": 55.95094,
            "lon": -3.19068,
            "name": "The Doric",
            "address": "15-16 Market Street, EH1 1DE",
            "visited": true
        },
        {
            "id": 60,
            "lat": 55.97893,
            "lon": -3.18660,
            "name": "Dreadnought",
            "address": "72 North Fort Street, EH6 4HL",
            "visited": true
        },
        {
            "id": 61,
            "lat": 55.93802,
            "lon": -3.19301,
            "name": "The Earl of Marchmont",
            "address": "22 Marchmont Crescent, EH9 1HG",
            "visited": true
        },
        {
            "id": 62,
            "lat": 55.94948,
            "lon": -3.22511,
            "name": "Edinburgh Sports Club",
            "address": "7 Belford Place, EH4 3DH"
        },
        {
            "id": 63,
            "lat": 55.94917,
            "lon": -3.19439,
            "name": "Ensign Ewart",
            "address": "521 Lawnmarket, EH1 2PE",
            "visited": true
        },
        {
            "id": 64,
            "lat": 55.95486,
            "lon": -3.11062,
            "name": "The Esplanade",
            "address": "62 Bath Street, EH15 1HF",
            "visited": true
        },
        {
            "id": 65,
            "lat": 55.94586,
            "lon": -3.20632,
            "name": "The Festival",
            "address": "18-20 Morrison Street, EH3 8BJ",
            "visited": true
        },
        {
            "id": 66,
            "lat": 55.94688,
            "lon": -3.19781,
            "name": "The Fiddlers Arms",
            "address": "11-13 Grassmarket, EH1 2HY",
            "visited": true
        },
        {
            "id": 67,
            "lat": 55.97053,
            "lon": -3.17129,
            "name": "The Foot of the Walk",
            "address": "183 Constitution Street, EH6 7AA",
            "visited": true
        },
        {
            "id": 68,
            "lat": 55.94607,
            "lon": -3.20348,
            "name": "Footlights",
            "address": "7-11 Spittal Street, EH3 9DY",
            "visited": true
        },
        {
            "id": 69,
            "lat": 55.95509,
            "lon": -3.11795,
            "name": "Foresters Guild",
            "address": "40 Portobello High Street, EH15 1DA",
            "visited": true
        },
        {
            "id": 70,
            "lat": 55.94038,
            "lon": -3.21806,
            "name": "The Fountain",
            "address": "127-131 Dundee Street, EH11 1AX",
            "visited": true
        },
        {
            "id": 71,
            "lat": 55.94806,
            "lon": -3.19173,
            "name": "George IV Bar",
            "address": "54 George IV Bridge, EH1 1EJ"
        },
        {
            "id": 72,
            "lat": 55.97113,
            "lon": -3.20734,
            "name": "Golden Acre",
            "address": "10 Bowhill Terrace, EH3 5QY"
        },
        {
            "id": 73,
            "lat": 55.93905,
            "lon": -3.21868,
            "name": "Golden Rule",
            "address": "30 Yeaman Place, EH11 1BT",
            "visited": true
        },
        {
            "id": 74,
            "lat": 55.93982,
            "lon": -3.20357,
            "name": "The Golf Tavern",
            "address": "31 Wrights Houses, EH10 4HR",
            "visited": true
        },
        {
            "id": 75,
            "lat": 55.96007,
            "lon": -3.21332,
            "name": "The Grange Cricket Club",
            "address": "Portgower Place, EH4 1HQ"
        },
        {
            "id": 76,
            "lat": 55.94389,
            "lon": -3.18364,
            "name": "Greenmantle",
            "address": "44 West Crosscauseway, EH8 9JP",
            "visited": true
        },
        {
            "id": 77,
            "lat": 55.94688,
            "lon": -3.19142,
            "name": "Greyfriars Bobby",
            "address": "34 Candlemaker Row, EH1 2QE",
            "visited": false
        },
        {
            "id": 78,
            "lat": 55.94980,
            "lon": -3.20925,
            "name": "The Grosvenor",
            "address": "26-28 Shandwick Place, EH2 4RT",
            "visited": true
        },
        {
            "id": 79,
            "lat": 55.95366,
            "lon": -3.19004,
            "name": "Guildford Arms",
            "address": "1 West Register Street, EH2 2AA",
            "visited": true
        },
        {
            "id": 80,
            "lat": 55.95099,
            "lon": -3.18889,
            "name": "Halfway House",
            "address": "24 Fleshmarket Close, EH1 1BX",
            "visited": true
        },
        {
            "id": 81,
            "lat": 55.94550,
            "lon": -3.24291,
            "name": "Hampton",
            "address": "14 Corstorphine Road, EH12 6HN",
            "visited": true
        },
        {
            "id": 82,
            "lat": 55.94551,
            "lon": -3.20525,
            "name": "The Hanging Bat",
            "address": "133 Lothian Road, EH3 9AB",
            "visited": true
        },
        {
            "id": 83,
            "lat": 55.98078,
            "lon": -3.19501,
            "name": "The Harbour Inn",
            "address": "4-6 Fishmarket Square, EH6 4LW"
        },
        {
            "id": 84,
            "lat": 55.94635,
            "lon": -3.21628,
            "name": "Haymarket",
            "address": "11-14a West Maitland Street, EH12 5DS",
            "visited": true
        },
        {
            "id": 85,
            "lat": 55.95093,
            "lon": -3.19078,
            "name": "Hebrides Market Street",
            "address": "17 Market Street, EH1 1DE",
            "visited": true
        },
        {
            "id": 86,
            "lat": 55.94609,
            "lon": -3.21350,
            "name": "Hebrides West End",
            "address": "185 Morrison Street, EH3 8DZ",
            "visited": true
        },
        {
            "id": 87,
            "lat": 55.95877,
            "lon": -3.20987,
            "name": "Hectors",
            "address": "47-49 Deanhaugh Street, EH4 1LR"
        },
        {
            "id": 88,
            "lat": 55.96951,
            "lon": -3.206187,
            "name": "Heriot's Rugby Club",
            "address": "Bangholm Terrace, EH3 5QN"
        },
        {
            "id": 89,
            "lat": 55.9246,
            "lon": -3.2097,
            "name": "The Hermitage",
            "address": "1-5 Comiston Road, EH10 6AA",
            "visited": true
        },
        {
            "id": 90,
            "lat": 55.903,
            "lon": -3.2219,
            "name": "Hunter's Tryst",
            "address": "97 Oxgangs Road, EH13 9NG"
        },
        {
            "id": 91,
            "lat": 55.95838,
            "lon": -3.183666,
            "name": "Jeremiah's Taproom",
            "address": "7-8 Elm Row, EH7 4AA"
        },
        {
            "id": 92,
            "lat": 55.9508,
            "lon": -3.1889,
            "name": "Jinglin' Geordie Bar",
            "address": "22 Fleshmarket Close, EH1 1BX",
            "visited": true
        },
        {
            "id": 93,
            "lat": 55.933551,
            "lon": -3.177782,
            "name": "Leslie's",
            "address": "45-47 Ratcliffe Terrace, EH9 1SU",
            "visited": true
        },
        {
            "id": 94,
            "lat": 55.960618,
            "lon": -3.181291,
            "name": "Joker & the Thief",
            "address": "71 Elm Row, EH7 4AQ",
            "visited": true
        },
        {
            "id": 95,
            "lat": 55.9494,
            "lon": -3.194,
            "name": "Jolly Judge",
            "address": "7 James Court, EH1 2PB",
            "visited": true
        },
        {
            "id": 96,
            "lat": 55.88836,
            "lon": -3.080268,
            "name": "The Justinlees",
            "address": "1-5 Dalhousie Road, EH22 3AT"
        },
        {
            "id": 97,
            "lat": 55.9558,
            "lon": -3.2051,
            "name": "Kay's Bar",
            "address": "39 Jamaica Street West, EH3 6HF"
        },
        {
            "id": 98,
            "lat": 55.957297896156,
            "lon": -3.187460728836,
            "name": "Keller",
            "address": "23-27 Broughton Street Lane, EH1 3LY"
        },
        {
            "id": 99,
            "lat": 55.9519,
            "lon": -3.2017,
            "name": "The Kenilworth",
            "address": "152-154 Rose Street, EH2 3JD",
            "visited": true
        },
        {
            "id": 100,
            "lat": 55.952199,
            "lon": -3.176897,
            "name": "Kilderkin",
            "address": "1 Browns Close, EH8 8BT",
            "visited": true
        },
        {
            "id": 101,
            "lat": 55.97616,
            "lon": -3.16964,
            "name": "King's Wark",
            "address": "36 The Shore, EH6 6QU",
            "visited": true
        },
        {
            "id": 102,
            "lat": 55.902243,
            "lon": -3.288456,
            "name": "Kinleith Mill",
            "address": "604 Lanark Road, EH14 5EN"
        },
        {
            "id": 103,
            "lat": 55.883500794293,
            "lon": -3.115235626984,
            "name": "Laird & Dog Inn",
            "address": "5 High Street, EH18 1NA"
        },
        {
            "id": 104,
            "lat": 55.947825,
            "lon": -3.195273,
            "name": "The Last Drop",
            "address": "74-78 Grassmarket, EH1 2JR",
            "visited": true
        },
        {
            "id": 105,
            "lat": 55.945013518053,
            "lon": -3.188562449074,
            "name": "The Library Bar (Teviot)",
            "address": "Teviot Row House, EH8 9AJ",
            "visited": true
        },
        {
            "id": 106,
            "lat": 55.951037808972,
            "lon": -3.18185364418,
            "name": "Mackays on the Mile",
            "address": "223 Canongate, EH8 8BJ",
            "visited": true
        },
        {
            "id": 107,
            "lat": 55.9568,
            "lon": -3.1924,
            "name": "The Magnum",
            "address": "1 Albany Street, EH1 3PY",
            "visited": true
        },
        {
            "id": 108,
            "lat": 55.975912,
            "lon": -3.169998,
            "name": "Malt & Hops",
            "address": "45 The Shore, EH6 6QU",
            "visited": true
        },
        {
            "id": 109,
            "lat": 55.950628391052,
            "lon": -3.190686210976,
            "name": "The Malt Shovel",
            "address": "11-15 Cockburn Street, EH1 1BP"
        },
        {
            "id": 110,
            "lat": 55.96,
            "lon": -3.1713,
            "name": "The Mash Tun",
            "address": "154 Easter Road, EH7 5RL",
            "visited": true
        },
        {
            "id": 111,
            "lat": 55.957116,
            "lon": -3.188061,
            "name": "Mather's Broughton Street",
            "address": "25 Broughton Street, EH1 3JU",
            "visited": true
        },
        {
            "id": 112,
            "lat": 55.950274,
            "lon": -3.208684,
            "name": "Mathers West End",
            "address": "1 Queensferry Street, EH2 4PA",
            "visited": true
        },
        {
            "id": 113,
            "lat": 55.895132,
            "lon": -3.096431,
            "name": "Melville Inn",
            "address": "By Dobbies Nursery, EH18 1AR",
            "visited": true
        },
        {
            "id": 114,
            "lat": 55.9291,
            "lon": -3.2098,
            "name": "The Merlin",
            "address": "168 Morningside Road, EH10 4PU",
            "visited": true
        },
        {
            "id": 115,
            "lat": 55.9532,
            "lon": -3.1967,
            "name": "Milnes",
            "address": "35 Hanover Street, EH2 2PJ",
            "visited": true
        },
        {
            "id": 116,
            "lat": 55.950421,
            "lon": -3.186427,
            "name": "The Mitre",
            "address": "131 High Street, EH1 1SG",
            "visited": true
        },
        {
            "id": 117,
            "lat": 55.9409,
            "lon": -3.0674,
            "name": "Musselburgh Rugby Club",
            "address": "Stoneyhill Farm Road, EH21 6RN"
        },
        {
            "id": 118,
            "lat": 55.969111079401,
            "lon": -3.173928863754,
            "name": "Newbarns Brewery & Taproom",
            "address": "13 Jane Street, EH6 5HE",
            "visited": true
        },
        {
            "id": 119,
            "lat": 55.9826,
            "lon": -3.1952,
            "name": "Newhaven Quay",
            "address": "51-53 Newhaven Place, EH6 4TX"
        },
        {
            "id": 120,
            "lat": 55.950686,
            "lon": -3.184406,
            "name": "No. 1 High Street",
            "address": "1 Jeffrey Street, EH1 1SR",
            "visited": true
        },
        {
            "id": 121,
            "lat": 55.963,
            "lon": -3.1956,
            "name": "O'Connor's",
            "address": "2-4 Broughton Road, EH7 4EB",
            "visited": true
        },
        {
            "id": 122,
            "lat": 55.9358,
            "lon": -3.1796,
            "name": "Old Bell",
            "address": "233 Causewayside, EH9 1PH",
            "visited": true
        },
        {
            "id": 123,
            "lat": 55.980016,
            "lon": -3.204311,
            "name": "Old Chain Pier",
            "address": "32 Trinity Crescent, EH5 3ED",
            "visited": true
        },
        {
            "id": 124,
            "lat": 55.96232970477,
            "lon": -3.170859708004,
            "name": "Old Eastway Tap",
            "address": "218 Easter Road, EH7 5QH",
            "visited": true
        },
        {
            "id": 125,
            "lat": 55.96335,
            "lon": -3.200697,
            "name": "The Orchard",
            "address": "1 Howard Place, EH3 5JZ"
        },
        {
            "id": 126,
            "lat": 55.949133918842,
            "lon": -3.098640289688,
            "name": "The Ormelie",
            "address": "44 Joppa Road, EH15 2ET",
            "visited": true
        },
        {
            "id": 127,
            "lat": 55.959021924043,
            "lon": -3.190824490738,
            "name": "The Ox",
            "address": "49-51 London Street, EH3 6LX"
        },
        {
            "id": 128,
            "lat": 55.95297,
            "lon": -3.204794,
            "name": "The Oxford Bar",
            "address": "8 Young Street, EH2 4JB"
        },
        {
            "id": 129,
            "lat": 55.968214790987,
            "lon": -3.16805405159,
            "name": "Persevere",
            "address": "398 Easter Road, EH6 8HT"
        },
        {
            "id": 130,
            "lat": 55.9462,
            "lon": -3.2181,
            "name": "Platform 5",
            "address": "8 Clifton Terrace, EH12 5DR"
        },
        {
            "id": 131,
            "lat": 55.956484,
            "lon": -3.186,
            "name": "The Playfair",
            "address": "Omni Centre, EH1 3AA",
            "visited": true
        },
        {
            "id": 132,
            "lat": 55.9541,
            "lon": -3.1168,
            "name": "Portobello Tap",
            "address": "87 Portobello High Street, EH15 1AW",
            "visited": true
        },
        {
            "id": 133,
            "lat": 55.9536,
            "lon": -3.2004,
            "name": "Queens Arms",
            "address": "49 Frederick Street, EH2 1EP"
        },
        {
            "id": 134,
            "lat": 55.903339,
            "lon": -3.285509,
            "name": "The Railway Inn",
            "address": "542 Lanark Road, EH14 5EL"
        },
        {
            "id": 135,
            "lat": 55.95642,
            "lon": -3.172105,
            "name": "The Regent",
            "address": "2 Montrose Terrace, EH7 5DL",
            "visited": true
        },
        {
            "id": 136,
            "lat": 55.896419533649,
            "lon": -3.309407288361,
            "name": "The Riccarton Inn",
            "address": "198 Lanark Road West, EH14 5NX",
            "visited": true
        },
        {
            "id": 137,
            "lat": 55.963759135844,
            "lon": -3.177495393848,
            "name": "Robbie's Bar",
            "address": "367 Leith Walk, EH6 8SE",
            "visited": true
        },
        {
            "id": 138,
            "lat": 55.952555,
            "lon": -3.198872,
            "name": "Rose St Brewery",
            "address": "55-57 Rose Street, EH2 2NH"
        },
        {
            "id": 139,
            "lat": 55.945375968143,
            "lon": -3.233838660049,
            "name": "Roseburn Bar",
            "address": "1 Roseburn Terrace, EH12 5NG",
            "visited": true
        },
        {
            "id": 140,
            "lat": 55.976,
            "lon": -3.1735,
            "name": "Roseleaf",
            "address": "23-24 Sandport Place, EH6 6EW"
        },
        {
            "id": 141,
            "lat": 55.939935258044,
            "lon": -3.182427130355,
            "name": "The Royal Dick (Summerhall)",
            "address": "1 Summerhall, EH9 1PL",
            "visited": true
        },
        {
            "id": 142,
            "lat": 55.9481,
            "lon": -3.1853,
            "name": "The Royal Oak",
            "address": "1 Infirmary Street, EH1 1LT",
            "visited": true
        },
        {
            "id": 143,
            "lat": 55.94583517787,
            "lon": -3.217377320099,
            "name": "Ryrie's",
            "address": "1 Haymarket Terrace, EH12 5EY",
            "visited": true
        },
        {
            "id": 144,
            "lat": 55.957199376024,
            "lon": -3.167698748341,
            "name": "The Safari Lounge",
            "address": "21 Cadzow Place, EH7 5SN",
            "visited": true
        },
        {
            "id": 145,
            "lat": 55.9383,
            "lon": -3.174,
            "name": "The Salisbury Arms",
            "address": "58 Dalkeith Road, EH16 5AD",
            "visited": true
        },
        {
            "id": 146,
            "lat": 55.949243,
            "lon": -3.185469,
            "name": "Salt Horse",
            "address": "57-61 Blackfriars Street, EH1 1NB",
            "visited": true
        },
        {
            "id": 147,
            "lat": 55.946068,
            "lon": -3.19128,
            "name": "Sandy Bell's",
            "address": "25 Forrest Road, EH1 2QH",
            "visited": true
        },
        {
            "id": 148,
            "lat": 55.951,
            "lon": -3.1884,
            "name": "Scotsman's Lounge",
            "address": "73 Cockburn Street, EH1 1BU"
        },
        {
            "id": 149,
            "lat": 55.955448,
            "lon": -3.140574,
            "name": "The Scottie",
            "address": "100 Northfield Broadway, EH8 7RU",
            "visited": true
        },
        {
            "id": 150,
            "lat": 55.9588,
            "lon": -3.2166,
            "name": "The Scran & Scallie",
            "address": "1 Comely Bank Road, EH4 1DT"
        },
        {
            "id": 151,
            "lat": 55.947579,
            "lon": -3.205833,
            "name": "Shakespeares",
            "address": "65 Lothian Road, EH1 2DJ",
            "visited": true
        },
        {
            "id": 152,
            "lat": 55.942001720352,
            "lon": -3.148468628311,
            "name": "Sheep Heid",
            "address": "43 The Causeway, EH15 3QA",
            "visited": true
        },
        {
            "id": 153,
            "lat": 55.97748,
            "lon": -3.169036,
            "name": "The Shore",
            "address": "3 The Shore, EH6 6QW",
            "visited": true
        },
        {
            "id": 154,
            "lat": 55.9453,
            "lon": -3.1836,
            "name": "The Southsider",
            "address": "3-7 West Richmond Street, EH8 9EF",
            "visited": true
        },
        {
            "id": 155,
            "lat": 55.90768,
            "lon": -3.258203,
            "name": "The Spylaw",
            "address": "27 Spylaw Street, EH13 0JT",
            "visited": true
        },
        {
            "id": 156,
            "lat": 55.958975,
            "lon": -3.210319,
            "name": "St Bernard's Bar",
            "address": "10 Raeburn Place, EH4 1HN"
        },
        {
            "id": 157,
            "lat": 55.957982,
            "lon": -3.203427,
            "name": "St Vincent",
            "address": "11 St Vincent Street, EH3 6SW",
            "visited": true
        },
        {
            "id": 158,
            "lat": 55.903693,
            "lon": -3.181594,
            "name": "The Stable Bar",
            "address": "50 Mortonhall Gate, EH16 6TJ"
        },
        {
            "id": 159,
            "lat": 55.944151,
            "lon": -3.057204,
            "name": "Staggs",
            "address": "81 North High Street, EH21 6JE",
            "visited": true
        },
        {
            "id": 160,
            "lat": 55.953,
            "lon": -3.1992,
            "name": "The Standing Order",
            "address": "62-66 George Street, EH2 2LR",
            "visited": true
        },
        {
            "id": 161,
            "lat": 55.9573,
            "lon": -3.1958,
            "name": "Star Bar",
            "address": "1 Northumberland Place, EH3 6LQ",
            "visited": true
        },
        {
            "id": 162,
            "lat": 55.979828,
            "lon": -3.202055,
            "name": "Starbank Inn",
            "address": "64 Laverockbank Road, EH5 3BZ",
            "visited": true
        },
        {
            "id": 163,
            "lat": 55.89068,
            "lon": -3.20108,
            "name": "The Steading",
            "address": "118-120 Biggar Road, EH10 7DU",
            "visited": true
        },
        {
            "id": 164,
            "lat": 55.976085564151,
            "lon": -3.168412915921,
            "name": "Steel Coulson (Shore)",
            "address": "38 Bernard Street, EH6 6PR"
        },
        {
            "id": 165,
            "lat": 55.9376,
            "lon": -3.181,
            "name": "Steel Coulson (Southside)",
            "address": "114 Causewayside, EH9 1PU",
            "visited": true
        },
        {
            "id": 166,
            "lat": 55.872318,
            "lon": -3.16149,
            "name": "Stewart Brewing Taproom",
            "address": "26a Dryden Road, EH20 9LZ"
        },
        {
            "id": 167,
            "lat": 55.958896,
            "lon": -3.209958,
            "name": "The Stockbridge Tap",
            "address": "2-4 Raeburn Place, EH4 1HN"
        },
        {
            "id": 168,
            "lat": 55.94865,
            "lon": -3.18778,
            "name": "Stramash!",
            "address": "207 Cowgate, EH1 1JQ",
            "visited": true
        },
        {
            "id": 169,
            "lat": 55.9072,
            "lon": -3.2745,
            "name": "Tanners",
            "address": "459 Lanark Road, EH14 5BA"
        },
        {
            "id": 170,
            "lat": 55.949352820226,
            "lon": -3.212346004963,
            "name": "Teuchters (West End)",
            "address": "26 William Street, EH3 7NH"
        },
        {
            "id": 171,
            "lat": 55.977464,
            "lon": -3.171407,
            "name": "Teuchters Landing",
            "address": "1C Dock Place, EH6 6LU",
            "visited": true
        },
        {
            "id": 172,
            "lat": 55.957201,
            "lon": -3.185044,
            "name": "Theatre Royal",
            "address": "25-27 Greenside Place, EH1 3AA",
            "visited": true
        },
        {
            "id": 173,
            "lat": 55.954062,
            "lon": -3.198889,
            "name": "Thistle Street Bar",
            "address": "39 Thistle Street, EH2 1DY"
        },
        {
            "id": 174,
            "lat": 55.946223719648,
            "lon": -3.212296402447,
            "name": "Thomson's Bar",
            "address": "182-184 Morrison Street, EH3 8EB",
            "visited": true
        },
        {
            "id": 175,
            "lat": 55.9534,
            "lon": -3.1927,
            "name": "Tiles Bar",
            "address": "1 St Andrew Sqaure, EH2 2BD"
        },
        {
            "id": 176,
            "lat": 55.9431,
            "lon": -3.2839,
            "name": "Toby Carvery (Corstorphine)",
            "address": "114-116 St John's Road, EH12 8AX"
        },
        {
            "id": 177,
            "lat": 55.9515,
            "lon": -3.1805,
            "name": "Tolbooth Tavern",
            "address": "167 Canongate, EH8 8BN",
            "visited": true
        },
        {
            "id": 178,
            "lat": 55.9249,
            "lon": -3.2104,
            "name": "The Waiting Room",
            "address": "7 Belhaven Terrace, EH10 5HZ",
            "visited": true
        },
        {
            "id": 179,
            "lat": 55.957,
            "lon": -3.198,
            "name": "The Wally Dug",
            "address": "32 Northumberland Street, EH3 6LS",
            "visited": true
        },
        {
            "id": 180,
            "lat": 55.933793,
            "lon": -3.302873,
            "name": "Westgate Farm",
            "address": "55 South Gyle Broadway, EH12 9LR"
        },
        {
            "id": 181,
            "lat": 55.950867,
            "lon": -3.207927,
            "name": "Whighams Wine Cellars",
            "address": "13 Hope Street, EH2 4EL",
            "visited": true
        },
        {
            "id": 182,
            "lat": 55.9489,
            "lon": -3.1867,
            "name": "Whistle Binkies",
            "address": "4-6 South Bridge, EH1 1LL",
            "visited": true
        },
        {
            "id": 183,
            "lat": 55.94749,
            "lon": -3.196686,
            "name": "The White Hart Inn",
            "address": "34 Grassmarket, EH1 2JU",
            "visited": true
        },
        {
            "id": 184,
            "lat": 55.943,
            "lon": -3.2822,
            "name": "The White Lady",
            "address": "92-98 St John's Road, EH12 8AT",
            "visited": true
        },
        {
            "id": 185,
            "lat": 55.9552,
            "lon": -3.15005,
            "name": "The Willow (Meadowbank)",
            "address": "35 Smokey Brae, EH8 7AA",
            "visited": true
        },
        {
            "id": 186,
            "lat": 55.9428706604799,
            "lon": -3.0494457376933615,
            "name": "The Willow on High Street",
            "address": "83 High Street, EH21 7DA"
        },
        {
            "id": 187,
            "lat": 55.9598,
            "lon": -3.1823,
            "name": "The Windsor",
            "address": "45 Elm Row, EH7 4AH",
            "visited": true
        },
        {
            "id": 188,
            "lat": 55.942115,
            "lon": -3.281396,
            "name": "Winstons",
            "address": "20 Kirk Loan, EH12 7HD",
            "visited": true
        },
        {
            "id": 189,
            "lat": 55.896984216692,
            "lon": -3.304917202377,
            "name": "Woodhall Arms",
            "address": "135 Lanark Road West, EH14 5NZ"
        },
        {
            "id": 190,
            "lat": 55.966168818204,
            "lon": -3.175837550926,
            "name": "Woodland Creatures",
            "address": "260-262 Leith Walk, EH6 5EL"
        },
        {
            "id": 191,
            "lat": 55.9504,
            "lon": -3.1854,
            "name": "The World's End",
            "address": "2-8 High Street, EH1 1TB",
            "visited": true
        },
        {
            "id": 192,
            "lat": 55.9657,
            "lon": -3.2729,
            "name": "Ye Olde Inn",
            "address": "25 Main Street, EH4 5BZ"
        }
    ]
}
